{
"type": "FeatureCollection",
"name": "Public_Health_Clinics___ph_clinics_point",
"crs": { "type": "name", "properties": { "name": "urn:ogc:def:crs:OGC:1.3:CRS84" } },
"features": [
{ "type": "Feature", "properties": { "OBJECTID": 1, "FEATURE_ID": 3400005, "ESITE": "38446", "CODE": 340, "NAME": "Northshore Public Health at Totem Lake", "ABB_NAME": "Northshore Public Health at Totem Lake", "ADDRESS": "13030 121st Way NE", "ZIPCODE": "98034", "TELEPHONE": "206-263-2850", "REPEAT": " ", "CLINIC": "Y", "MED_DENT": "Medical", "WEBSITE": "http://www.kingcounty.gov/healthservices/health/locations/northshore.aspx", "PIN": "3291400030", "MAJOR": "329140", "MINOR": "0030" }, "geometry": { "type": "Point", "coordinates": [ -122.178620573998316, 47.717623575281756 ] } },
{ "type": "Feature", "properties": { "OBJECTID": 2, "FEATURE_ID": 3400003, "ESITE": "449596", "CODE": 340, "NAME": "Downtown Public Health Center", "ABB_NAME": "Downtown Public Health Center", "ADDRESS": "2142 4th Ave", "ZIPCODE": "98121", "TELEPHONE": "206-477-8300", "REPEAT": "Y", "CLINIC": "Y", "MED_DENT": "Both", "WEBSITE": "http://www.kingcounty.gov/healthservices/health/locations/downtown.aspx", "PIN": "0696000025", "MAJOR": "069600", "MINOR": "0025" }, "geometry": { "type": "Point", "coordinates": [ -122.34216518431893, 47.614598966805858 ] } },
{ "type": "Feature", "properties": { "OBJECTID": 3, "FEATURE_ID": 3400004, "ESITE": "1026666", "CODE": 340, "NAME": "Renton Public Health Center", "ABB_NAME": "Renton Public Health Center", "ADDRESS": "3201 NE 7th St", "ZIPCODE": "98056", "TELEPHONE": "206-477-0100", "REPEAT": " ", "CLINIC": "Y", "MED_DENT": "Both", "WEBSITE": "http://www.kingcounty.gov/healthservices/health/locations/renton.aspx", "PIN": "7227800425", "MAJOR": "722780", "MINOR": "0425" }, "geometry": { "type": "Point", "coordinates": [ -122.176095378162771, 47.494829778254811 ] } },
{ "type": "Feature", "properties": { "OBJECTID": 4, "FEATURE_ID": 10000035, "ESITE": "138", "CODE": 340, "NAME": "Public Health Primary Care at Navos", "ABB_NAME": "Public Health Primary Care at Navos", "ADDRESS": "1210 SW 136th St", "ZIPCODE": "98166", "TELEPHONE": "206-257-6870", "REPEAT": null, "CLINIC": "Y", "MED_DENT": "Medical", "WEBSITE": null, "PIN": "7835800311", "MAJOR": "783580", "MINOR": "0311" }, "geometry": { "type": "Point", "coordinates": [ -122.349852365065715, 47.481755494647487 ] } },
{ "type": "Feature", "properties": { "OBJECTID": 5, "FEATURE_ID": 3400009, "ESITE": "102984", "CODE": 340, "NAME": "Eastgate Public Health Center", "ABB_NAME": "Eastgage Public Health Center", "ADDRESS": "14350 SE Eastgate Way", "ZIPCODE": "98007", "TELEPHONE": "206-477-8000", "REPEAT": " ", "CLINIC": "Y", "MED_DENT": "Both", "WEBSITE": "http://www.kingcounty.gov/healthservices/health/locations/eastgate.aspx", "PIN": "1024059050", "MAJOR": "102405", "MINOR": "9050" }, "geometry": { "type": "Point", "coordinates": [ -122.149880762426761, 47.581159291714833 ] } },
{ "type": "Feature", "properties": { "OBJECTID": 6, "FEATURE_ID": 3400002, "ESITE": "705937", "CODE": 340, "NAME": "Federal Way Public Health Center", "ABB_NAME": "Federal Way Public Health Center", "ADDRESS": "33431 13th Pl S", "ZIPCODE": "98003", "TELEPHONE": "206-477-6800", "REPEAT": " ", "CLINIC": "Y", "MED_DENT": "Medical", "WEBSITE": "http://www.kingcounty.gov/healthservices/health/locations/federalway.aspx", "PIN": "7681900070", "MAJOR": "768190", "MINOR": "0070" }, "geometry": { "type": "Point", "coordinates": [ -122.317855993566695, 47.301956637416694 ] } },
{ "type": "Feature", "properties": { "OBJECTID": 7, "FEATURE_ID": 3400008, "ESITE": "255311", "CODE": 340, "NAME": "North Seattle Dental Clinic", "ABB_NAME": "North Seattle Dental Clinic", "ADDRESS": "12359 Lake City Way NE", "ZIPCODE": "98125", "TELEPHONE": "206-205-8580", "REPEAT": "", "CLINIC": "", "MED_DENT": "Dental", "WEBSITE": "http://www.kingcounty.gov/healthservices/health/locations/dental.aspx#ph", "PIN": "8822900675", "MAJOR": "882290", "MINOR": "0675" }, "geometry": { "type": "Point", "coordinates": [ -122.295751655073445, 47.718985430038536 ] } },
{ "type": "Feature", "properties": { "OBJECTID": 8, "FEATURE_ID": 3400014, "ESITE": "476708", "CODE": 340, "NAME": "Columbia City Center for Health", "ABB_NAME": "Columbia City Center for Health", "ADDRESS": "4400 37th Ave S", "ZIPCODE": "98118", "TELEPHONE": "206-296-4650", "REPEAT": " ", "CLINIC": "Y", "MED_DENT": "Both", "WEBSITE": "http://www.kingcounty.gov/healthservices/health/locations/columbia.aspx", "PIN": "7950303700", "MAJOR": "795030", "MINOR": "3700" }, "geometry": { "type": "Point", "coordinates": [ -122.285745721171835, 47.56390552906835 ] } },
{ "type": "Feature", "properties": { "OBJECTID": 9, "FEATURE_ID": 3400012, "ESITE": "879919", "CODE": 340, "NAME": "Kent Public Health Center", "ABB_NAME": "Kent Public Health Center", "ADDRESS": "25742 104th Ave SE", "ZIPCODE": "98030", "TELEPHONE": "206-477-6950", "REPEAT": " ", "CLINIC": "Y", "MED_DENT": "Medical", "WEBSITE": "http://www.kingcounty.gov/healthservices/health/locations/easthill.aspx", "PIN": "3462800221", "MAJOR": "346280", "MINOR": "0221" }, "geometry": { "type": "Point", "coordinates": [ -122.200735715894041, 47.370877113235203 ] } },
{ "type": "Feature", "properties": { "OBJECTID": 10, "FEATURE_ID": 3400013, "ESITE": "805031", "CODE": 340, "NAME": "Birch Creek Public Health Center", "ABB_NAME": "Birch Creek Public Health Center", "ADDRESS": "13111 SE 274th St", "ZIPCODE": "98030", "TELEPHONE": "206-263-2460", "REPEAT": " ", "CLINIC": "Y", "MED_DENT": "Medical", "WEBSITE": "http://www.kingcounty.gov/healthservices/health/locations/birchcreek.aspx", "PIN": "3322059001", "MAJOR": "332205", "MINOR": "9001" }, "geometry": { "type": "Point", "coordinates": [ -122.166190636880458, 47.355583334798858 ] } },
{ "type": "Feature", "properties": { "OBJECTID": 11, "FEATURE_ID": 3400006, "ESITE": "248553", "CODE": 340, "NAME": "Meridian Center for Health", "ABB_NAME": "Meridian Center for Health", "ADDRESS": "10501 Meridian Ave N", "ZIPCODE": "98133", "TELEPHONE": "206-296-4990", "REPEAT": " ", "CLINIC": "Y", "MED_DENT": "Medical", "WEBSITE": "http://www.kingcounty.gov/healthservices/health/locations/north.aspx", "PIN": "3026049025", "MAJOR": "302604", "MINOR": "9025" }, "geometry": { "type": "Point", "coordinates": [ -122.334831937501463, 47.705654124780317 ] } },
{ "type": "Feature", "properties": { "OBJECTID": 12, "FEATURE_ID": 3400001, "ESITE": "713051", "CODE": 340, "NAME": "Auburn Public Health Center", "ABB_NAME": "Auburn Public Health Center", "ADDRESS": "901 Auburn Way N", "ZIPCODE": "98002", "TELEPHONE": "206-477-0600", "REPEAT": "", "CLINIC": "", "MED_DENT": "Medical", "WEBSITE": "http://www.kingcounty.gov/healthservices/health/locations/auburn.aspx", "PIN": "0489000085", "MAJOR": "048900", "MINOR": "0085" }, "geometry": { "type": "Point", "coordinates": [ -122.223277709323341, 47.316187042103302 ] } },
{ "type": "Feature", "properties": { "OBJECTID": 13, "FEATURE_ID": 3400007, "ESITE": "994352", "CODE": 340, "NAME": "White Center Public Health Center", "ABB_NAME": "White Center Public Health Center", "ADDRESS": "9934 8th Ave SW", "ZIPCODE": "98106", "TELEPHONE": "206-477-0000", "REPEAT": " ", "CLINIC": "Y", "MED_DENT": "Medical", "WEBSITE": "http://www.kingcounty.gov/healthservices/health/locations/whitecenter.aspx", "PIN": "2895800160", "MAJOR": "289580", "MINOR": "0160" }, "geometry": { "type": "Point", "coordinates": [ -122.344982445364039, 47.514319135670597 ] } }
]
}
